[
  {
    "lat": 47.3765,
    "lng": 15.0914,
    "city": "Leoben",
    "cityEn": "Leoben",
    "country": "Austria",
    "flag": "🇦🇹"
  },
  {
    "lat": 48.2082,
    "lng": 16.3738,
    "city": "Vienna",
    "cityEn": "Vienna",
    "country": "Austria",
    "flag": "🇦🇹"
  },
  {
    "lat": 52.2297,
    "lng": 21.0122,
    "city": "Varsavia",
    "cityEn": "Warsaw",
    "country": "Polonia",
    "flag": "🇵🇱"
  },
  {
    "lat": 54.6872,
    "lng": 25.2797,
    "city": "Vilnius",
    "cityEn": "Vilnius",
    "country": "Lituania",
    "flag": "🇱🇹"
  },
  {
    "lat": 56.949,
    "lng": 24.1052,
    "city": "Riga",
    "cityEn": "Riga",
    "country": "Lettonia",
    "flag": "🇱🇻"
  },
  {
    "lat": 56.949,
    "lng": 24.1052,
    "city": "Riga (sosta)",
    "cityEn": "Riga (rest day)",
    "country": "Lettonia",
    "flag": "🇱🇻"
  },
  {
    "lat": 59.437,
    "lng": 24.7536,
    "city": "Tallinn",
    "cityEn": "Tallinn",
    "country": "Estonia",
    "flag": "🇪🇪"
  },
  {
    "lat": 60.1699,
    "lng": 24.9384,
    "city": "Helsinki",
    "cityEn": "Helsinki",
    "country": "Finlandia",
    "flag": "🇫🇮"
  },
  {
    "lat": 61.7667,
    "lng": 29.3833,
    "city": "Punkaharju",
    "cityEn": "Punkaharju",
    "country": "Finlandia",
    "flag": "🇫🇮"
  },
  {
    "lat": 61.5,
    "lng": 28.5,
    "city": "Lago Saimaa",
    "cityEn": "Lake Saimaa",
    "country": "Finlandia",
    "flag": "🇫🇮"
  },
  {
    "lat": 65.0121,
    "lng": 25.4651,
    "city": "Oulu",
    "cityEn": "Oulu",
    "country": "Finlandia",
    "flag": "🇫🇮"
  },
  {
    "lat": 65.93,
    "lng": 26.51,
    "city": "Ranua",
    "cityEn": "Ranua",
    "country": "Finlandia",
    "flag": "🇫🇮"
  },
  {
    "lat": 66.5436,
    "lng": 25.8473,
    "city": "Rovaniemi",
    "cityEn": "Rovaniemi",
    "country": "Finlandia",
    "flag": "🇫🇮"
  },
  {
    "lat": 66.5,
    "lng": 25.75,
    "city": "Rovaniemi",
    "cityEn": "Rovaniemi",
    "country": "Finlandia",
    "flag": "🇫🇮"
  },
  {
    "lat": 69.0714,
    "lng": 27.0142,
    "city": "Utsjoki",
    "cityEn": "Utsjoki",
    "country": "Finlandia",
    "flag": "🇫🇮"
  },
  {
    "lat": 69.0485,
    "lng": 20.789,
    "city": "Kilpisjärvi",
    "cityEn": "Kilpisjärvi",
    "country": "Finlandia",
    "flag": "🇫🇮"
  },
  {
    "lat": 69.6496,
    "lng": 18.956,
    "city": "Tromsø",
    "cityEn": "Tromsø",
    "country": "Norvegia",
    "flag": "🇳🇴"
  },
  {
    "lat": 69.295,
    "lng": 17.05,
    "city": "Senja",
    "cityEn": "Senja",
    "country": "Norvegia",
    "flag": "🇳🇴"
  },
  {
    "lat": 69.3267,
    "lng": 16.1317,
    "city": "Andøya",
    "cityEn": "Andøya",
    "country": "Norvegia",
    "flag": "🇳🇴"
  },
  {
    "lat": 69.325,
    "lng": 16.13,
    "city": "Andøya",
    "cityEn": "Andøya",
    "country": "Norvegia",
    "flag": "🇳🇴"
  },
  {
    "lat": 68.2344,
    "lng": 14.5686,
    "city": "Svolvær",
    "cityEn": "Svolvær",
    "country": "Norvegia",
    "flag": "🇳🇴"
  },
  {
    "lat": 68.1483,
    "lng": 14.2017,
    "city": "Henningsvær",
    "cityEn": "Henningsvær",
    "country": "Norvegia",
    "flag": "🇳🇴"
  },
  {
    "lat": 68.25,
    "lng": 13.5833,
    "city": "Lofoten",
    "cityEn": "Lofoten",
    "country": "Norvegia",
    "flag": "🇳🇴"
  },
  {
    "lat": 67.9333,
    "lng": 13.0833,
    "city": "Reine",
    "cityEn": "Reine",
    "country": "Norvegia",
    "flag": "🇳🇴"
  },
  {
    "lat": 68.0333,
    "lng": 13.35,
    "city": "Lofoten Sud",
    "cityEn": "South Lofoten",
    "country": "Norvegia",
    "flag": "🇳🇴"
  },
  {
    "lat": 66.5633,
    "lng": 15.3117,
    "city": "Saltstraumen",
    "cityEn": "Saltstraumen",
    "country": "Norvegia",
    "flag": "🇳🇴"
  },
  {
    "lat": 63.4305,
    "lng": 10.3951,
    "city": "Trondheim",
    "cityEn": "Trondheim",
    "country": "Norvegia",
    "flag": "🇳🇴"
  },
  {
    "lat": 63.4305,
    "lng": 10.3951,
    "city": "Trondheim",
    "cityEn": "Trondheim",
    "country": "Norvegia",
    "flag": "🇳🇴"
  },
  {
    "lat": 63.0167,
    "lng": 7.35,
    "city": "Atlanterhavsveien",
    "cityEn": "Atlantic Road",
    "country": "Norvegia",
    "flag": "🇳🇴"
  },
  {
    "lat": 62.4567,
    "lng": 7.67,
    "city": "Trollstigen",
    "cityEn": "Trollstigen",
    "country": "Norvegia",
    "flag": "🇳🇴"
  },
  {
    "lat": 60.3913,
    "lng": 5.3221,
    "city": "Bergen",
    "cityEn": "Bergen",
    "country": "Norvegia",
    "flag": "🇳🇴"
  },
  {
    "lat": 60.3913,
    "lng": 5.3221,
    "city": "Bergen",
    "cityEn": "Bergen",
    "country": "Norvegia",
    "flag": "🇳🇴"
  },
  {
    "lat": 58.97,
    "lng": 5.7331,
    "city": "Stavanger",
    "cityEn": "Stavanger",
    "country": "Norvegia",
    "flag": "🇳🇴"
  },
  {
    "lat": 58.9863,
    "lng": 6.1885,
    "city": "Preikestolen",
    "cityEn": "Preikestolen",
    "country": "Norvegia",
    "flag": "🇳🇴"
  },
  {
    "lat": 55.6761,
    "lng": 12.5683,
    "city": "Copenhagen",
    "cityEn": "Copenhagen",
    "country": "Danimarca",
    "flag": "🇩🇰"
  },
  {
    "lat": 55.6761,
    "lng": 12.5683,
    "city": "Copenhagen",
    "cityEn": "Copenhagen",
    "country": "Danimarca",
    "flag": "🇩🇰"
  },
  {
    "lat": 55.6761,
    "lng": 12.5683,
    "city": "Copenhagen",
    "cityEn": "Copenhagen",
    "country": "Danimarca",
    "flag": "🇩🇰"
  },
  {
    "lat": 55.7308,
    "lng": 9.1153,
    "city": "Billund",
    "cityEn": "Billund",
    "country": "Danimarca",
    "flag": "🇩🇰"
  },
  {
    "lat": 55.7308,
    "lng": 9.1153,
    "city": "Legoland",
    "cityEn": "Legoland",
    "country": "Danimarca",
    "flag": "🇩🇰"
  },
  {
    "lat": 55.7308,
    "lng": 9.1153,
    "city": "LEGO House",
    "cityEn": "LEGO House",
    "country": "Danimarca",
    "flag": "🇩🇰"
  },
  {
    "lat": 53.0793,
    "lng": 8.8017,
    "city": "Brema",
    "cityEn": "Bremen",
    "country": "Germania",
    "flag": "🇩🇪"
  },
  {
    "lat": 49.8942,
    "lng": 2.3022,
    "city": "Amiens",
    "cityEn": "Amiens",
    "country": "Francia",
    "flag": "🇫🇷"
  },
  {
    "lat": 47.4133,
    "lng": 0.99,
    "city": "Loira",
    "cityEn": "Loire Valley",
    "country": "Francia",
    "flag": "🇫🇷"
  },
  {
    "lat": 47.4133,
    "lng": 0.99,
    "city": "Loira",
    "cityEn": "Loire Valley",
    "country": "Francia",
    "flag": "🇫🇷"
  },
  {
    "lat": 43.3183,
    "lng": -1.9812,
    "city": "San Sebastián",
    "cityEn": "San Sebastián",
    "country": "Spagna",
    "flag": "🇪🇸"
  },
  {
    "lat": 43.263,
    "lng": -2.935,
    "city": "Bilbao",
    "cityEn": "Bilbao",
    "country": "Spagna",
    "flag": "🇪🇸"
  },
  {
    "lat": 43.15,
    "lng": -4.8,
    "city": "Picos de Europa",
    "cityEn": "Picos de Europa",
    "country": "Spagna",
    "flag": "🇪🇸"
  },
  {
    "lat": 42.0096,
    "lng": -4.5288,
    "city": "Palencia",
    "cityEn": "Palencia",
    "country": "Spagna",
    "flag": "🇪🇸"
  },
  {
    "lat": 42.0096,
    "lng": -4.5288,
    "city": "Palencia",
    "cityEn": "Palencia",
    "country": "Spagna",
    "flag": "🇪🇸"
  },
  {
    "lat": 41.88,
    "lng": 3.12,
    "city": "Costa Brava",
    "cityEn": "Costa Brava",
    "country": "Spagna",
    "flag": "🇪🇸"
  },
  {
    "lat": 42.2886,
    "lng": 3.2743,
    "city": "Cadaqués",
    "cityEn": "Cadaqués",
    "country": "Spagna",
    "flag": "🇪🇸"
  },
  {
    "lat": 43.5528,
    "lng": 7.0174,
    "city": "Costa Azzurra",
    "cityEn": "Côte d'Azur",
    "country": "Francia",
    "flag": "🇫🇷"
  },
  {
    "lat": 44.4056,
    "lng": 8.9463,
    "city": "Genova",
    "cityEn": "Genoa",
    "country": "Italia",
    "flag": "🇮🇹"
  },
  {
    "lat": 44.4056,
    "lng": 8.9463,
    "city": "Genova",
    "cityEn": "Genoa",
    "country": "Italia",
    "flag": "🇮🇹"
  },
  {
    "lat": 45.39,
    "lng": 11.85,
    "city": "Casa",
    "cityEn": "Home",
    "country": "Italia",
    "flag": "🇮🇹"
  }
]